[
  {
    "name": "Luton",
    "region": "East of England",
    "sub_region": "East of England - Bedfordshire",
    "places_available": 3,
    "has_haematology": true,
    "lat": 51.8787,
    "lon": -0.42,
    "hospital_name": "Luton & Dunstable Hospital",
    "google_rating": 3.2
  },
  {
    "name": "Cambridge",
    "region": "East of England",
    "sub_region": "East of England - Cambridgeshire",
    "places_available": 2,
    "has_haematology": true,
    "lat": 52.1742,
    "lon": 0.1402,
    "hospital_name": "Addenbrooke's Hospital",
    "google_rating": 3.8
  },
  {
    "name": "Peterborough",
    "region": "East of England",
    "sub_region": "East of England - Cambridgeshire",
    "places_available": 2,
    "has_haematology": true,
    "lat": 52.5695,
    "lon": -0.2405,
    "hospital_name": "Peterborough City Hospital",
    "google_rating": 3.1
  },
  {
    "name": "Basildon",
    "region": "East of England",
    "sub_region": "East of England - Essex",
    "places_available": 2,
    "has_haematology": true,
    "lat": 51.5601,
    "lon": 0.4583,
    "hospital_name": "Basildon University Hospital",
    "google_rating": 3.0
  },
  {
    "name": "Watford",
    "region": "East of England",
    "sub_region": "East of England - Hertfordshire",
    "places_available": 3,
    "has_haematology": true,
    "lat": 51.6559,
    "lon": -0.3977,
    "hospital_name": "Watford General Hospital",
    "google_rating": 3.1
  },
  {
    "name": "Great Yarmouth",
    "region": "East of England",
    "sub_region": "East of England - Norfolk",
    "places_available": 2,
    "has_haematology": true,
    "lat": 52.5988,
    "lon": 1.7297,
    "hospital_name": "James Paget University Hospital",
    "google_rating": 3.4
  },
  {
    "name": "Kings Lynn",
    "region": "East of England",
    "sub_region": "East of England - Norfolk",
    "places_available": 1,
    "has_haematology": true,
    "lat": 52.7515,
    "lon": 0.4042,
    "hospital_name": "Queen Elizabeth Hospital King's Lynn",
    "google_rating": 3.3
  },
  {
    "name": "Norwich",
    "region": "East of England",
    "sub_region": "East of England - Norfolk",
    "places_available": 1,
    "has_haematology": true,
    "lat": 52.6227,
    "lon": 1.2233,
    "hospital_name": "Norfolk and Norwich University Hospital",
    "google_rating": 3.6
  },
  {
    "name": "Ipswich",
    "region": "East of England",
    "sub_region": "East of England - Suffolk",
    "places_available": 2,
    "has_haematology": true,
    "lat": 52.0506,
    "lon": 1.1566,
    "hospital_name": "Ipswich Hospital",
    "google_rating": 3.3
  },
  {
    "name": "Dartford & Gravesham",
    "region": "Kent, Surrey and Sussex",
    "sub_region": "Kent, Surrey and Sussex - Kent",
    "places_available": 1,
    "has_haematology": true,
    "lat": 51.4079,
    "lon": 0.2297,
    "hospital_name": "Darent Valley Hospital",
    "google_rating": 3.2
  },
  {
    "name": "East Kent Hospitals",
    "region": "Kent, Surrey and Sussex",
    "sub_region": "Kent, Surrey and Sussex - Kent",
    "places_available": 3,
    "has_haematology": true,
    "lat": 51.1879,
    "lon": 1.0861,
    "hospital_name": "William Harvey Hospital",
    "google_rating": 3.3
  },
  {
    "name": "Maidstone",
    "region": "Kent, Surrey and Sussex",
    "sub_region": "Kent, Surrey and Sussex - Kent",
    "places_available": 7,
    "has_haematology": true,
    "lat": 51.2659,
    "lon": 0.5455,
    "hospital_name": "Maidstone Hospital",
    "google_rating": 3.1
  },
  {
    "name": "Medway",
    "region": "Kent, Surrey and Sussex",
    "sub_region": "Kent, Surrey and Sussex - Kent",
    "places_available": 3,
    "has_haematology": true,
    "lat": 51.4048,
    "lon": 0.544,
    "hospital_name": "Medway Maritime Hospital",
    "google_rating": 2.9
  },
  {
    "name": "East Surrey",
    "region": "Kent, Surrey and Sussex",
    "sub_region": "Kent, Surrey and Sussex - Surrey",
    "places_available": 3,
    "has_haematology": true,
    "lat": 51.1794,
    "lon": -0.1702,
    "hospital_name": "East Surrey Hospital",
    "google_rating": 3.2
  },
  {
    "name": "Frimley Park Hospital",
    "region": "Kent, Surrey and Sussex",
    "sub_region": "Kent, Surrey and Sussex - Surrey",
    "places_available": 15,
    "has_haematology": true,
    "lat": 51.3145,
    "lon": -0.7386,
    "hospital_name": "Frimley Park Hospital",
    "google_rating": 3.4
  },
  {
    "name": "Royal Surrey County Hospital",
    "region": "Kent, Surrey and Sussex",
    "sub_region": "Kent, Surrey and Sussex - Surrey",
    "places_available": 4,
    "has_haematology": true,
    "lat": 51.2439,
    "lon": -0.5737,
    "hospital_name": "Royal Surrey County Hospital",
    "google_rating": 3.5
  },
  {
    "name": "Brighton and Sussex University Hospitals",
    "region": "Kent, Surrey and Sussex",
    "sub_region": "Kent, Surrey and Sussex - Sussex",
    "places_available": 8,
    "has_haematology": true,
    "lat": 50.8427,
    "lon": -0.1289,
    "hospital_name": "Royal Sussex County Hospital",
    "google_rating": 3.4
  },
  {
    "name": "East Sussex (Eastbourne & Hastings)",
    "region": "Kent, Surrey and Sussex",
    "sub_region": "Kent, Surrey and Sussex - Sussex",
    "places_available": 4,
    "has_haematology": true,
    "lat": 50.8429,
    "lon": 0.2695,
    "hospital_name": "Conquest Hospital",
    "google_rating": 3.1
  },
  {
    "name": "Worthing",
    "region": "Kent, Surrey and Sussex",
    "sub_region": "Kent, Surrey and Sussex - Sussex",
    "places_available": 3,
    "has_haematology": true,
    "lat": 50.8225,
    "lon": -0.3723,
    "hospital_name": "Worthing Hospital",
    "google_rating": 3.2
  },
  {
    "name": "Cumbria & Lancashire",
    "region": "North West",
    "sub_region": "North West - Greater Manchester, Lancashire and South Cumbria",
    "places_available": 10,
    "has_haematology": true,
    "lat": 53.8076,
    "lon": -2.9441,
    "hospital_name": "Royal Preston Hospital",
    "google_rating": 3.3
  },
  {
    "name": "Gt Manchester",
    "region": "North West",
    "sub_region": "North West - Greater Manchester, Lancashire and South Cumbria",
    "places_available": 22,
    "has_haematology": true,
    "lat": 53.4808,
    "lon": -2.2426,
    "hospital_name": "Manchester Royal Infirmary",
    "google_rating": 3.4
  },
  {
    "name": "North Manchester",
    "region": "North West",
    "sub_region": "North West - Greater Manchester, Lancashire and South Cumbria",
    "places_available": 9,
    "has_haematology": true,
    "lat": 53.51,
    "lon": -2.253,
    "hospital_name": "North Manchester General Hospital",
    "google_rating": 3.1
  },
  {
    "name": "Cornwall",
    "region": "South West",
    "sub_region": "South West - Peninsula",
    "places_available": 2,
    "has_haematology": true,
    "lat": 50.266,
    "lon": -5.0527,
    "hospital_name": "Royal Cornwall Hospital",
    "google_rating": 3.3
  },
  {
    "name": "Exeter",
    "region": "South West",
    "sub_region": "South West - Peninsula",
    "places_available": 3,
    "has_haematology": true,
    "lat": 50.7184,
    "lon": -3.5339,
    "hospital_name": "Royal Devon & Exeter Hospital",
    "google_rating": 3.7
  },
  {
    "name": "Plymouth",
    "region": "South West",
    "sub_region": "South West - Peninsula",
    "places_available": 3,
    "has_haematology": true,
    "lat": 50.4167,
    "lon": -4.0957,
    "hospital_name": "Derriford Hospital",
    "google_rating": 3.4
  },
  {
    "name": "Buckinghamshire Healthcare NHS Trust",
    "region": "Thames Valley",
    "sub_region": "Thames Valley Oxford",
    "places_available": 6,
    "has_haematology": true,
    "lat": 51.8129,
    "lon": -0.8084,
    "hospital_name": "Stoke Mandeville Hospital",
    "google_rating": 3.2
  },
  {
    "name": "Milton Keynes Hospital NHS Foundation Trust",
    "region": "Thames Valley",
    "sub_region": "Thames Valley Oxford",
    "places_available": 1,
    "has_haematology": true,
    "lat": 52.0406,
    "lon": -0.7594,
    "hospital_name": "Milton Keynes University Hospital",
    "google_rating": 3.1
  },
  {
    "name": "Oxford University Hospitals NHS Trust",
    "region": "Thames Valley",
    "sub_region": "Thames Valley Oxford",
    "places_available": 5,
    "has_haematology": true,
    "lat": 51.7627,
    "lon": -1.218,
    "hospital_name": "John Radcliffe Hospital",
    "google_rating": 3.6
  },
  {
    "name": "Royal Berkshire NHS Foundation Trust",
    "region": "Thames Valley",
    "sub_region": "Thames Valley Oxford",
    "places_available": 2,
    "has_haematology": true,
    "lat": 51.4545,
    "lon": -0.9732,
    "hospital_name": "Royal Berkshire Hospital",
    "google_rating": 3.3
  },
  {
    "name": "Winchester",
    "region": "Wessex",
    "sub_region": "Wessex - Mid-Hampshire",
    "places_available": 3,
    "has_haematology": true,
    "lat": 51.072,
    "lon": -1.336,
    "hospital_name": "Royal Hampshire County Hospital",
    "google_rating": 3.4
  },
  {
    "name": "Basingstoke",
    "region": "Wessex",
    "sub_region": "Wessex - North Hampshire",
    "places_available": 3,
    "has_haematology": true,
    "lat": 51.2665,
    "lon": -1.084,
    "hospital_name": "Basingstoke and North Hampshire Hospital",
    "google_rating": 3.2
  },
  {
    "name": "Portsmouth",
    "region": "Wessex",
    "sub_region": "Wessex - South East Hampshire",
    "places_available": 5,
    "has_haematology": true,
    "lat": 50.7979,
    "lon": -1.0881,
    "hospital_name": "Queen Alexandra Hospital",
    "google_rating": 3.2
  },
  {
    "name": "Salisbury",
    "region": "Wessex",
    "sub_region": "Wessex - South Wiltshire",
    "places_available": 3,
    "has_haematology": true,
    "lat": 51.0693,
    "lon": -1.7902,
    "hospital_name": "Salisbury District Hospital",
    "google_rating": 3.5
  },
  {
    "name": "Southampton",
    "region": "Wessex",
    "sub_region": "Wessex - Southampton",
    "places_available": 3,
    "has_haematology": true,
    "lat": 50.9097,
    "lon": -1.4044,
    "hospital_name": "Southampton General Hospital",
    "google_rating": 3.3
  },
  {
    "name": "North Central East London",
    "region": "London",
    "sub_region": "London - North Central and East",
    "places_available": 0,
    "has_haematology": true,
    "lat": 51.5404,
    "lon": -0.0616,
    "hospital_name": "Royal London Hospital",
    "google_rating": 3.5
  },
  {
    "name": "Barts",
    "region": "London",
    "sub_region": "London - City",
    "places_available": 0,
    "has_haematology": true,
    "lat": 51.5186,
    "lon": -0.1003,
    "hospital_name": "St Bartholomew's Hospital",
    "google_rating": 4.0
  },
  {
    "name": "Whipps Cross",
    "region": "London",
    "sub_region": "London - North East",
    "places_available": 0,
    "has_haematology": true,
    "lat": 51.5894,
    "lon": 0.0121,
    "hospital_name": "Whipps Cross Hospital",
    "google_rating": 3.3
  },
  {
    "name": "Newham",
    "region": "London",
    "sub_region": "London - East",
    "places_available": 0,
    "has_haematology": true,
    "lat": 51.5251,
    "lon": 0.0308,
    "hospital_name": "Newham General Hospital",
    "google_rating": 3.2
  },
  {
    "name": "Homerton",
    "region": "London",
    "sub_region": "London - North East",
    "places_available": 0,
    "has_haematology": true,
    "lat": 51.5478,
    "lon": -0.0424,
    "hospital_name": "Homerton Hospital",
    "google_rating": 3.4
  },
  {
    "name": "UCLH",
    "region": "London",
    "sub_region": "London - Central",
    "places_available": 0,
    "has_haematology": true,
    "lat": 51.5246,
    "lon": -0.134,
    "hospital_name": "University College Hospital",
    "google_rating": 3.9
  },
  {
    "name": "Royal Free",
    "region": "London",
    "sub_region": "London - North",
    "places_available": 0,
    "has_haematology": true,
    "lat": 51.5516,
    "lon": -0.1644,
    "hospital_name": "Royal Free Hospital",
    "google_rating": 3.6
  },
  {
    "name": "Whittington",
    "region": "London",
    "sub_region": "London - North",
    "places_available": 0,
    "has_haematology": true,
    "lat": 51.5644,
    "lon": -0.138,
    "hospital_name": "The Whittington Hospital",
    "google_rating": 3.3
  },
  {
    "name": "North Middlesex",
    "region": "London",
    "sub_region": "London - North",
    "places_available": 0,
    "has_haematology": true,
    "lat": 51.6114,
    "lon": -0.066,
    "hospital_name": "North Middlesex Hospital",
    "google_rating": 3.1
  },
  {
    "name": "Barnet",
    "region": "London",
    "sub_region": "London - North",
    "places_available": 0,
    "has_haematology": true,
    "lat": 51.6388,
    "lon": -0.1989,
    "hospital_name": "Barnet Hospital",
    "google_rating": 3.3
  },
  {
    "name": "Hammersmith",
    "region": "London",
    "sub_region": "London - North West",
    "places_available": 0,
    "has_haematology": true,
    "lat": 51.5185,
    "lon": -0.2291,
    "hospital_name": "Hammersmith Hospital",
    "google_rating": 3.7
  },
  {
    "name": "Charing Cross",
    "region": "London",
    "sub_region": "London - West",
    "places_available": 0,
    "has_haematology": true,
    "lat": 51.4881,
    "lon": -0.217,
    "hospital_name": "Charing Cross Hospital",
    "google_rating": 3.5
  },
  {
    "name": "St Mary's Paddington",
    "region": "London",
    "sub_region": "London - West",
    "places_available": 0,
    "has_haematology": true,
    "lat": 51.5175,
    "lon": -0.173,
    "hospital_name": "St Mary's Hospital",
    "google_rating": 3.6
  },
  {
    "name": "Chelsea and Westminster",
    "region": "London",
    "sub_region": "London - West",
    "places_available": 0,
    "has_haematology": true,
    "lat": 51.4813,
    "lon": -0.1832,
    "hospital_name": "Chelsea and Westminster Hospital",
    "google_rating": 3.8
  },
  {
    "name": "West Middlesex",
    "region": "London",
    "sub_region": "London - West",
    "places_available": 0,
    "has_haematology": true,
    "lat": 51.4823,
    "lon": -0.3382,
    "hospital_name": "West Middlesex Hospital",
    "google_rating": 3.2
  },
  {
    "name": "Ealing",
    "region": "London",
    "sub_region": "London - West",
    "places_available": 0,
    "has_haematology": true,
    "lat": 51.5155,
    "lon": -0.3353,
    "hospital_name": "Ealing Hospital",
    "google_rating": 3.1
  },
  {
    "name": "Hillingdon",
    "region": "London",
    "sub_region": "London - North West",
    "places_available": 0,
    "has_haematology": true,
    "lat": 51.5343,
    "lon": -0.4764,
    "hospital_name": "Hillingdon Hospital",
    "google_rating": 3.4
  },
  {
    "name": "Guy's",
    "region": "London",
    "sub_region": "London - South East",
    "places_available": 0,
    "has_haematology": true,
    "lat": 51.5033,
    "lon": -0.0871,
    "hospital_name": "Guy's Hospital",
    "google_rating": 3.9
  },
  {
    "name": "St Thomas'",
    "region": "London",
    "sub_region": "London - South",
    "places_available": 0,
    "has_haematology": true,
    "lat": 51.4982,
    "lon": -0.1179,
    "hospital_name": "St Thomas' Hospital",
    "google_rating": 3.8
  },
  {
    "name": "King's College",
    "region": "London",
    "sub_region": "London - South East",
    "places_available": 0,
    "has_haematology": true,
    "lat": 51.4681,
    "lon": -0.093,
    "hospital_name": "King's College Hospital",
    "google_rating": 3.7
  },
  {
    "name": "St George's",
    "region": "London",
    "sub_region": "London - South West",
    "places_available": 0,
    "has_haematology": true,
    "lat": 51.4271,
    "lon": -0.1735,
    "hospital_name": "St George's Hospital",
    "google_rating": 3.6
  },
  {
    "name": "Queen Elizabeth Woolwich",
    "region": "London",
    "sub_region": "London - South East",
    "places_available": 0,
    "has_haematology": true,
    "lat": 51.4891,
    "lon": 0.0639,
    "hospital_name": "Queen Elizabeth Hospital",
    "google_rating": 3.4
  },
  {
    "name": "Lewisham",
    "region": "London",
    "sub_region": "London - South East",
    "places_available": 0,
    "has_haematology": true,
    "lat": 51.4627,
    "lon": -0.0115,
    "hospital_name": "University Hospital Lewisham",
    "google_rating": 3.3
  },
  {
    "name": "Princess Royal Bromley",
    "region": "London",
    "sub_region": "London - South East",
    "places_available": 0,
    "has_haematology": true,
    "lat": 51.3672,
    "lon": 0.0526,
    "hospital_name": "Princess Royal University Hospital",
    "google_rating": 3.5
  },
  {
    "name": "Croydon",
    "region": "London",
    "sub_region": "London - South",
    "places_available": 0,
    "has_haematology": true,
    "lat": 51.3532,
    "lon": -0.1045,
    "hospital_name": "Croydon University Hospital",
    "google_rating": 3.2
  },
  {
    "name": "St Helier",
    "region": "London",
    "sub_region": "London - South West",
    "places_available": 0,
    "has_haematology": true,
    "lat": 51.3836,
    "lon": -0.2012,
    "hospital_name": "St Helier Hospital",
    "google_rating": 3.3
  },
  {
    "name": "Epsom",
    "region": "London",
    "sub_region": "London - South West",
    "places_available": 0,
    "has_haematology": true,
    "lat": 51.3281,
    "lon": -0.2663,
    "hospital_name": "Epsom General Hospital",
    "google_rating": 3.4
  },
  {
    "name": "Kingston",
    "region": "London",
    "sub_region": "London - South West",
    "places_available": 0,
    "has_haematology": true,
    "lat": 51.4093,
    "lon": -0.2955,
    "hospital_name": "Kingston Hospital",
    "google_rating": 3.7
  },
  {
    "name": "Queen's Romford",
    "region": "London",
    "sub_region": "London - East",
    "places_available": 0,
    "has_haematology": true,
    "lat": 51.5759,
    "lon": 0.1768,
    "hospital_name": "Queen's Hospital",
    "google_rating": 3.3
  },
  {
    "name": "King George Ilford",
    "region": "London",
    "sub_region": "London - East",
    "places_available": 0,
    "has_haematology": true,
    "lat": 51.557,
    "lon": 0.0862,
    "hospital_name": "King George Hospital",
    "google_rating": 3.2
  },
  {
    "name": "Royal Marsden Chelsea",
    "region": "London",
    "sub_region": "London - West",
    "places_available": 0,
    "has_haematology": true,
    "lat": 51.4907,
    "lon": -0.1779,
    "hospital_name": "Royal Marsden Hospital",
    "google_rating": 4.2
  },
  {
    "name": "Royal Brompton",
    "region": "London",
    "sub_region": "London - West",
    "places_available": 0,
    "has_haematology": false,
    "lat": 51.4888,
    "lon": -0.1733,
    "hospital_name": "Royal Brompton Hospital",
    "google_rating": 4.1
  },
  {
    "name": "Harefield",
    "region": "London",
    "sub_region": "London - North West",
    "places_available": 0,
    "has_haematology": false,
    "lat": 51.5977,
    "lon": -0.4956,
    "hospital_name": "Harefield Hospital",
    "google_rating": 3.9
  },
  {
    "name": "National Hospital for Neurology",
    "region": "London",
    "sub_region": "London - Central",
    "places_available": 0,
    "has_haematology": false,
    "lat": 51.5234,
    "lon": -0.1198,
    "hospital_name": "National Hospital for Neurology and Neurosurgery",
    "google_rating": 4.0
  },
  {
    "name": "Queen's Hospital Romford",
    "region": "London",
    "sub_region": "London - East",
    "places_available": 2,
    "has_haematology": true,
    "lat": 51.5744,
    "lon": 0.1755,
    "hospital_name": "Queen's Hospital",
    "google_rating": 3.3
  }
]